{"type":"FeatureCollection","features":[
{"type":"Feature","geometry":{"type":"Point","coordinates":[-107.7240,41.1665]},"properties":{"name":"Baggs"}},
{"type":"Feature","geometry":{"type":"Point","coordinates":[-105.1600,43.2598]},"properties":{"name":"Bill"}},
{"type":"Feature","geometry":{"type":"Point","coordinates":[-106.6158,44.2702]},"properties":{"name":"Buffalo"}},
{"type":"Feature","geometry":{"type":"Point","coordinates":[-104.9860,41.3819]},"properties":{"name":"Buford"}},
{"type":"Feature","geometry":{"type":"Point","coordinates":[-108.0939,41.8076]},"properties":{"name":"Creston Jct"}},
{"type":"Feature","geometry":{"type":"Point","coordinates":[-109.9883,43.0025]},"properties":{"name":"Daniel Jct"}},
{"type":"Feature","geometry":{"type":"Point","coordinates":[-104.8320,44.8382]},"properties":{"name":"Devils Tower"}},
{"type":"Feature","geometry":{"type":"Point","coordinates":[-105.1585,42.9782]},"properties":{"name":"Douglas"}},
{"type":"Feature","geometry":{"type":"Point","coordinates":[-104.8263,42.3221]},"properties":{"name":"Dwyer Jct"}},
{"type":"Feature","geometry":{"type":"Point","coordinates":[-105.9015,43.0454]},"properties":{"name":"Evansville"}},
{"type":"Feature","geometry":{"type":"Point","coordinates":[-109.0783,42.4081]},"properties":{"name":"Farson"}},
{"type":"Feature","geometry":{"type":"Point","coordinates":[-108.0382,44.5917]},"properties":{"name":"Greybull"}},
{"type":"Feature","geometry":{"type":"Point","coordinates":[-107.5715,43.2604]},"properties":{"name":"Hiland"}},
{"type":"Feature","geometry":{"type":"Point","coordinates":[-110.7043,43.3492]},"properties":{"name":"Hoback Jct"}},
{"type":"Feature","geometry":{"type":"Point","coordinates":[-106.3424,43.7247]},"properties":{"name":"Kaycee"}},
{"type":"Feature","geometry":{"type":"Point","coordinates":[-110.4387,41.8949]},"properties":{"name":"Kemmerer"}},
{"type":"Feature","geometry":{"type":"Point","coordinates":[-108.7558,42.9465]},"properties":{"name":"Lander"}},
{"type":"Feature","geometry":{"type":"Point","coordinates":[-109.6482,41.6705]},"properties":{"name":"Little America"}},
{"type":"Feature","geometry":{"type":"Point","coordinates":[-106.2620,42.1926]},"properties":{"name":"Medicine Bow"}},
{"type":"Feature","geometry":{"type":"Point","coordinates":[-104.5117,44.4034]},"properties":{"name":"Moorcroft"}},
{"type":"Feature","geometry":{"type":"Point","coordinates":[-110.3419,44.2868]},"properties":{"name":"Moran Jct"}},
{"type":"Feature","geometry":{"type":"Point","coordinates":[-107.3664,42.4579]},"properties":{"name":"Muddy Gap Jct"}},
{"type":"Feature","geometry":{"type":"Point","coordinates":[-105.1117,42.7341]},"properties":{"name":"Orin Jct"}},
{"type":"Feature","geometry":{"type":"Point","coordinates":[-106.8735,43.1365]},"properties":{"name":"Powder River"}},
{"type":"Feature","geometry":{"type":"Point","coordinates":[-108.8368,42.0622]},"properties":{"name":"Reliance"}},
{"type":"Feature","geometry":{"type":"Point","coordinates":[-106.0629,42.0494]},"properties":{"name":"Rock River"}},
{"type":"Feature","geometry":{"type":"Point","coordinates":[-108.0227,43.5478]},"properties":{"name":"Shoshoni"}},
{"type":"Feature","geometry":{"type":"Point","coordinates":[-106.7949,42.0199]},"properties":{"name":"Sinclair"}},
{"type":"Feature","geometry":{"type":"Point","coordinates":[-108.0403,43.9528]},"properties":{"name":"Thermopolis"}},
{"type":"Feature","geometry":{"type":"Point","coordinates":[-104.6138,42.0406]},"properties":{"name":"Wheatland"}},
{"type":"Feature","geometry":{"type":"Point","coordinates":[-105.4550,43.8191]},"properties":{"name":"Wright"}}
]}
