{"type":"FeatureCollection","features":[
{"type":"Feature","geometry":{"type":"Point","coordinates":[-111.1302,43.1328]},"properties":{"name":"Alpine"}},
{"type":"Feature","geometry":{"type":"Point","coordinates":[-107.7207,41.1716]},"properties":{"name":"Baggs"}},
{"type":"Feature","geometry":{"type":"Point","coordinates":[-105.1579,43.2680]},"properties":{"name":"Bill"}},
{"type":"Feature","geometry":{"type":"Point","coordinates":[-106.6137,44.2804]},"properties":{"name":"Buffalo"}},
{"type":"Feature","geometry":{"type":"Point","coordinates":[-104.9834,41.3869]},"properties":{"name":"Buford"}},
{"type":"Feature","geometry":{"type":"Point","coordinates":[-108.0907,41.8139]},"properties":{"name":"Creston Jct"}},
{"type":"Feature","geometry":{"type":"Point","coordinates":[-109.9850,43.0113]},"properties":{"name":"Daniel Jct"}},
{"type":"Feature","geometry":{"type":"Point","coordinates":[-104.8303,44.8490]},"properties":{"name":"Devils Tower"}},
{"type":"Feature","geometry":{"type":"Point","coordinates":[-105.1562,42.9860]},"properties":{"name":"Douglas"}},
{"type":"Feature","geometry":{"type":"Point","coordinates":[-104.8240,42.3286]},"properties":{"name":"Dwyer Jct"}},
{"type":"Feature","geometry":{"type":"Point","coordinates":[-105.8991,43.0533]},"properties":{"name":"Evansville"}},
{"type":"Feature","geometry":{"type":"Point","coordinates":[-109.0751,42.4157]},"properties":{"name":"Farson"}},
{"type":"Feature","geometry":{"type":"Point","coordinates":[-108.6329,45.0521]},"properties":{"name":"Frannie"}},
{"type":"Feature","geometry":{"type":"Point","coordinates":[-108.0360,44.6027]},"properties":{"name":"Greybull"}},
{"type":"Feature","geometry":{"type":"Point","coordinates":[-107.5689,43.2691]},"properties":{"name":"Hiland"}},
{"type":"Feature","geometry":{"type":"Point","coordinates":[-110.7011,43.3588]},"properties":{"name":"Hoback Jct"}},
{"type":"Feature","geometry":{"type":"Point","coordinates":[-106.3402,43.7339]},"properties":{"name":"Kaycee"}},
{"type":"Feature","geometry":{"type":"Point","coordinates":[-110.4350,41.9020]},"properties":{"name":"Kemmerer"}},
{"type":"Feature","geometry":{"type":"Point","coordinates":[-110.5455,44.9572]},"properties":{"name":"Lake Jct"}},
{"type":"Feature","geometry":{"type":"Point","coordinates":[-108.7528,42.9549]},"properties":{"name":"Lander"}},
{"type":"Feature","geometry":{"type":"Point","coordinates":[-109.6445,41.6770]},"properties":{"name":"Little America"}},
{"type":"Feature","geometry":{"type":"Point","coordinates":[-108.4605,44.9394]},"properties":{"name":"Lovell"}},
{"type":"Feature","geometry":{"type":"Point","coordinates":[-104.3745,42.8091]},"properties":{"name":"Lusk"}},
{"type":"Feature","geometry":{"type":"Point","coordinates":[-106.2593,42.1992]},"properties":{"name":"Medicine Bow"}},
{"type":"Feature","geometry":{"type":"Point","coordinates":[-104.5099,44.4134]},"properties":{"name":"Moorcroft"}},
{"type":"Feature","geometry":{"type":"Point","coordinates":[-110.3392,44.2978]},"properties":{"name":"Moran Jct"}},
{"type":"Feature","geometry":{"type":"Point","coordinates":[-107.3635,42.4652]},"properties":{"name":"Muddy Gap Jct"}},
{"type":"Feature","geometry":{"type":"Point","coordinates":[-104.8789,42.7400]},"properties":{"name":"Orin"}},
{"type":"Feature","geometry":{"type":"Point","coordinates":[-105.1094,42.7414]},"properties":{"name":"Orin Jct"}},
{"type":"Feature","geometry":{"type":"Point","coordinates":[-106.8709,43.1448]},"properties":{"name":"Powder River"}},
{"type":"Feature","geometry":{"type":"Point","coordinates":[-108.8335,42.0691]},"properties":{"name":"Reliance"}},
{"type":"Feature","geometry":{"type":"Point","coordinates":[-106.0602,42.0557]},"properties":{"name":"Rock River"}},
{"type":"Feature","geometry":{"type":"Point","coordinates":[-108.0200,43.5570]},"properties":{"name":"Shoshoni"}},
{"type":"Feature","geometry":{"type":"Point","coordinates":[-106.7920,42.0263]},"properties":{"name":"Sinclair"}},
{"type":"Feature","geometry":{"type":"Point","coordinates":[-108.0378,43.9627]},"properties":{"name":"Thermopolis"}},
{"type":"Feature","geometry":{"type":"Point","coordinates":[-104.6115,42.0466]},"properties":{"name":"Wheatland"}},
{"type":"Feature","geometry":{"type":"Point","coordinates":[-105.4530,43.8284]},"properties":{"name":"Wright"}}
]}
