{"type":"FeatureCollection","features":[
{"type":"Feature","geometry":{"type":"Point","coordinates":[-104.4991,39.6211]},"properties":{"state":"CO","name":"Aurora"}},
{"type":"Feature","geometry":{"type":"Point","coordinates":[-105.5862,39.8449]},"properties":{"state":"CO","name":"Berthoud Pass"}},
{"type":"Feature","geometry":{"type":"Point","coordinates":[-102.3568,38.3201]},"properties":{"state":"CO","name":"Bristol"}},
{"type":"Feature","geometry":{"type":"Point","coordinates":[-107.9937,37.9041]},"properties":{"state":"CO","name":"Camp Bird"}},
{"type":"Feature","geometry":{"type":"Point","coordinates":[-102.3943,38.7418]},"properties":{"state":"CO","name":"Cheyenne Wells"}},
{"type":"Feature","geometry":{"type":"Point","coordinates":[-108.4907,37.3933]},"properties":{"state":"CO","name":"Cortez"}},
{"type":"Feature","geometry":{"type":"Point","coordinates":[-107.5063,40.4943]},"properties":{"state":"CO","name":"Craig"}},
{"type":"Feature","geometry":{"type":"Point","coordinates":[-108.8961,40.2705]},"properties":{"state":"CO","name":"Dinosaur"}},
{"type":"Feature","geometry":{"type":"Point","coordinates":[-105.3426,39.0990]},"properties":{"state":"CO","name":"Divide"}},
{"type":"Feature","geometry":{"type":"Point","coordinates":[-102.9784,38.5173]},"properties":{"state":"CO","name":"Eads"}},
{"type":"Feature","geometry":{"type":"Point","coordinates":[-105.9425,39.2914]},"properties":{"state":"CO","name":"Fairplay"}},
{"type":"Feature","geometry":{"type":"Point","coordinates":[-108.6008,39.1920]},"properties":{"state":"CO","name":"Fruita"}},
{"type":"Feature","geometry":{"type":"Point","coordinates":[-102.3438,38.0868]},"properties":{"state":"CO","name":"Granada"}},
{"type":"Feature","geometry":{"type":"Point","coordinates":[-106.1622,39.9938]},"properties":{"state":"CO","name":"Granby"}},
{"type":"Feature","geometry":{"type":"Point","coordinates":[-105.9910,40.1660]},"properties":{"state":"CO","name":"Grand Lake"}},
{"type":"Feature","geometry":{"type":"Point","coordinates":[-106.0306,38.7685]},"properties":{"state":"CO","name":"Johnson Village"}},
{"type":"Feature","geometry":{"type":"Point","coordinates":[-102.3441,41.0499]},"properties":{"state":"CO","name":"Julesburg"}},
{"type":"Feature","geometry":{"type":"Point","coordinates":[-103.0810,38.8298]},"properties":{"state":"CO","name":"Kit Carson"}},
{"type":"Feature","geometry":{"type":"Point","coordinates":[-103.5537,37.9707]},"properties":{"state":"CO","name":"La Junta"}},
{"type":"Feature","geometry":{"type":"Point","coordinates":[-105.3767,37.6105]},"properties":{"state":"CO","name":"La Veta Pass"}},
{"type":"Feature","geometry":{"type":"Point","coordinates":[-103.6270,39.1783]},"properties":{"state":"CO","name":"Limon"}},
{"type":"Feature","geometry":{"type":"Point","coordinates":[-108.8877,39.2897]},"properties":{"state":"CO","name":"Loma"}},
{"type":"Feature","geometry":{"type":"Point","coordinates":[-108.1245,40.5206]},"properties":{"state":"CO","name":"Maybell"}},
{"type":"Feature","geometry":{"type":"Point","coordinates":[-106.5164,38.3504]},"properties":{"state":"CO","name":"Monarch Pass"}},
{"type":"Feature","geometry":{"type":"Point","coordinates":[-106.4132,37.5683]},"properties":{"state":"CO","name":"Monte Vista"}},
{"type":"Feature","geometry":{"type":"Point","coordinates":[-107.7455,38.0895]},"properties":{"state":"CO","name":"Ouray"}},
{"type":"Feature","geometry":{"type":"Point","coordinates":[-107.1236,37.2362]},"properties":{"state":"CO","name":"Pagosa Springs"}},
{"type":"Feature","geometry":{"type":"Point","coordinates":[-105.3457,38.4481]},"properties":{"state":"CO","name":"Parkdale"}},
{"type":"Feature","geometry":{"type":"Point","coordinates":[-106.1462,38.5098]},"properties":{"state":"CO","name":"Poncha Springs"}},
{"type":"Feature","geometry":{"type":"Point","coordinates":[-107.7709,37.6655]},"properties":{"state":"CO","name":"Red Mountain Pass"}},
{"type":"Feature","geometry":{"type":"Point","coordinates":[-106.1685,38.0032]},"properties":{"state":"CO","name":"Saguache"}},
{"type":"Feature","geometry":{"type":"Point","coordinates":[-102.2098,38.4839]},"properties":{"state":"CO","name":"Sheridan Lake"}},
{"type":"Feature","geometry":{"type":"Point","coordinates":[-104.5405,37.2414]},"properties":{"state":"CO","name":"Starkville"}},
{"type":"Feature","geometry":{"type":"Point","coordinates":[-104.4915,37.3979]},"properties":{"state":"CO","name":"Trinidad"}},
{"type":"Feature","geometry":{"type":"Point","coordinates":[-104.8591,37.6342]},"properties":{"state":"CO","name":"Walsenburg"}},
{"type":"Feature","geometry":{"type":"Point","coordinates":[-104.2464,40.1152]},"properties":{"state":"CO","name":"Wiggins"}},
{"type":"Feature","geometry":{"type":"Point","coordinates":[-103.2077,38.8707]},"properties":{"state":"CO","name":"Wild Horse"}},
{"type":"Feature","geometry":{"type":"Point","coordinates":[-105.9922,39.9280]},"properties":{"state":"CO","name":"Winter Park"}},
{"type":"Feature","geometry":{"type":"Point","coordinates":[-102.2313,40.0816]},"properties":{"state":"CO","name":"Wray"}},
{"type":"Feature","geometry":{"type":"Point","coordinates":[-107.6714,32.3086]},"properties":{"state":"NM","name":"Akela"}},
{"type":"Feature","geometry":{"type":"Point","coordinates":[-106.4316,32.4606]},"properties":{"state":"NM","name":"Augustina Pass"}},
{"type":"Feature","geometry":{"type":"Point","coordinates":[-107.8475,36.7810]},"properties":{"state":"NM","name":"Bloomfield"}},
{"type":"Feature","geometry":{"type":"Point","coordinates":[-105.7949,33.6318]},"properties":{"state":"NM","name":"Carrizozo"}},
{"type":"Feature","geometry":{"type":"Point","coordinates":[-105.4930,34.3050]},"properties":{"state":"NM","name":"Corona"}},
{"type":"Feature","geometry":{"type":"Point","coordinates":[-105.4881,36.4985]},"properties":{"state":"NM","name":"Eagle Nest"}},
{"type":"Feature","geometry":{"type":"Point","coordinates":[-103.5585,33.9588]},"properties":{"state":"NM","name":"Elida"}},
{"type":"Feature","geometry":{"type":"Point","coordinates":[-104.2114,34.4782]},"properties":{"state":"NM","name":"Fort Sumner"}},
{"type":"Feature","geometry":{"type":"Point","coordinates":[-109.1250,37.2296]},"properties":{"state":"NM","name":"Four Corners"}},
{"type":"Feature","geometry":{"type":"Point","coordinates":[-106.8909,32.1545]},"properties":{"state":"NM","name":"La Mesilla"}},
{"type":"Feature","geometry":{"type":"Point","coordinates":[-108.7220,32.3186]},"properties":{"state":"NM","name":"Lordsburg"}},
{"type":"Feature","geometry":{"type":"Point","coordinates":[-105.2256,32.9034]},"properties":{"state":"NM","name":"Mountain Park"}},
{"type":"Feature","geometry":{"type":"Point","coordinates":[-108.4636,34.3460]},"properties":{"state":"NM","name":"Quemado"}},
{"type":"Feature","geometry":{"type":"Point","coordinates":[-104.6233,34.8834]},"properties":{"state":"NM","name":"Santa Rosa"}},
{"type":"Feature","geometry":{"type":"Point","coordinates":[-108.6822,36.7953]},"properties":{"state":"NM","name":"Shiprock"}},
{"type":"Feature","geometry":{"type":"Point","coordinates":[-107.5309,35.1104]},"properties":{"state":"NM","name":"Sky City"}},
{"type":"Feature","geometry":{"type":"Point","coordinates":[-102.8209,34.3646]},"properties":{"state":"NM","name":"Texico"}},
{"type":"Feature","geometry":{"type":"Point","coordinates":[-106.5351,36.8460]},"properties":{"state":"NM","name":"Tierra Amarilla"}},
{"type":"Feature","geometry":{"type":"Point","coordinates":[-105.1377,34.5616]},"properties":{"state":"NM","name":"Vaughn"}},
{"type":"Feature","geometry":{"type":"Point","coordinates":[-107.7240,41.1665]},"properties":{"state":"WY","name":"Baggs"}},
{"type":"Feature","geometry":{"type":"Point","coordinates":[-105.1600,43.2598]},"properties":{"state":"WY","name":"Bill"}},
{"type":"Feature","geometry":{"type":"Point","coordinates":[-106.6158,44.2702]},"properties":{"state":"WY","name":"Buffalo"}},
{"type":"Feature","geometry":{"type":"Point","coordinates":[-104.9860,41.3819]},"properties":{"state":"WY","name":"Buford"}},
{"type":"Feature","geometry":{"type":"Point","coordinates":[-108.0939,41.8076]},"properties":{"state":"WY","name":"Creston Jct"}},
{"type":"Feature","geometry":{"type":"Point","coordinates":[-109.9883,43.0025]},"properties":{"state":"WY","name":"Daniel Jct"}},
{"type":"Feature","geometry":{"type":"Point","coordinates":[-104.8320,44.8382]},"properties":{"state":"WY","name":"Devils Tower"}},
{"type":"Feature","geometry":{"type":"Point","coordinates":[-105.1585,42.9782]},"properties":{"state":"WY","name":"Douglas"}},
{"type":"Feature","geometry":{"type":"Point","coordinates":[-104.8263,42.3221]},"properties":{"state":"WY","name":"Dwyer Jct"}},
{"type":"Feature","geometry":{"type":"Point","coordinates":[-105.9015,43.0454]},"properties":{"state":"WY","name":"Evansville"}},
{"type":"Feature","geometry":{"type":"Point","coordinates":[-109.0783,42.4081]},"properties":{"state":"WY","name":"Farson"}},
{"type":"Feature","geometry":{"type":"Point","coordinates":[-108.0382,44.5917]},"properties":{"state":"WY","name":"Greybull"}},
{"type":"Feature","geometry":{"type":"Point","coordinates":[-107.5715,43.2604]},"properties":{"state":"WY","name":"Hiland"}},
{"type":"Feature","geometry":{"type":"Point","coordinates":[-110.7043,43.3492]},"properties":{"state":"WY","name":"Hoback Jct"}},
{"type":"Feature","geometry":{"type":"Point","coordinates":[-106.3424,43.7247]},"properties":{"state":"WY","name":"Kaycee"}},
{"type":"Feature","geometry":{"type":"Point","coordinates":[-110.4387,41.8949]},"properties":{"state":"WY","name":"Kemmerer"}},
{"type":"Feature","geometry":{"type":"Point","coordinates":[-108.7558,42.9465]},"properties":{"state":"WY","name":"Lander"}},
{"type":"Feature","geometry":{"type":"Point","coordinates":[-109.6482,41.6705]},"properties":{"state":"WY","name":"Little America"}},
{"type":"Feature","geometry":{"type":"Point","coordinates":[-106.2620,42.1926]},"properties":{"state":"WY","name":"Medicine Bow"}},
{"type":"Feature","geometry":{"type":"Point","coordinates":[-104.5117,44.4034]},"properties":{"state":"WY","name":"Moorcroft"}},
{"type":"Feature","geometry":{"type":"Point","coordinates":[-110.3419,44.2868]},"properties":{"state":"WY","name":"Moran Jct"}},
{"type":"Feature","geometry":{"type":"Point","coordinates":[-107.3664,42.4579]},"properties":{"state":"WY","name":"Muddy Gap Jct"}},
{"type":"Feature","geometry":{"type":"Point","coordinates":[-105.1117,42.7341]},"properties":{"state":"WY","name":"Orin Jct"}},
{"type":"Feature","geometry":{"type":"Point","coordinates":[-106.8735,43.1365]},"properties":{"state":"WY","name":"Powder River"}},
{"type":"Feature","geometry":{"type":"Point","coordinates":[-108.8368,42.0622]},"properties":{"state":"WY","name":"Reliance"}},
{"type":"Feature","geometry":{"type":"Point","coordinates":[-106.0629,42.0494]},"properties":{"state":"WY","name":"Rock River"}},
{"type":"Feature","geometry":{"type":"Point","coordinates":[-108.0227,43.5478]},"properties":{"state":"WY","name":"Shoshoni"}},
{"type":"Feature","geometry":{"type":"Point","coordinates":[-106.7949,42.0199]},"properties":{"state":"WY","name":"Sinclair"}},
{"type":"Feature","geometry":{"type":"Point","coordinates":[-108.0403,43.9528]},"properties":{"state":"WY","name":"Thermopolis"}},
{"type":"Feature","geometry":{"type":"Point","coordinates":[-104.6138,42.0406]},"properties":{"state":"WY","name":"Wheatland"}},
{"type":"Feature","geometry":{"type":"Point","coordinates":[-105.4550,43.8191]},"properties":{"state":"WY","name":"Wright"}}
]}
