{"type":"FeatureCollection","features":[
{"type":"Feature","geometry":{"type":"Point","coordinates":[-113.3822,43.8534]},"properties":{"name":"Arco"}},
{"type":"Feature","geometry":{"type":"Point","coordinates":[-114.2525,43.6587]},"properties":{"name":"Bellevue"}},
{"type":"Feature","geometry":{"type":"Point","coordinates":[-116.3491,48.8000]},"properties":{"name":"Bonners Ferry"}},
{"type":"Feature","geometry":{"type":"Point","coordinates":[-115.9515,42.4060]},"properties":{"name":"Bruneau"}},
{"type":"Feature","geometry":{"type":"Point","coordinates":[-116.5084,44.6561]},"properties":{"name":"Cambridge"}},
{"type":"Feature","geometry":{"type":"Point","coordinates":[-113.8039,43.3735]},"properties":{"name":"Carey"}},
{"type":"Feature","geometry":{"type":"Point","coordinates":[-114.1730,44.5941]},"properties":{"name":"Challis"}},
{"type":"Feature","geometry":{"type":"Point","coordinates":[-113.5733,43.5452]},"properties":{"name":"Craters of the Moon"}},
{"type":"Feature","geometry":{"type":"Point","coordinates":[-116.6623,44.0347]},"properties":{"name":"Fruitland"}},
{"type":"Feature","geometry":{"type":"Point","coordinates":[-116.0712,44.0929]},"properties":{"name":"Horseshoe Bend"}},
{"type":"Feature","geometry":{"type":"Point","coordinates":[-111.4076,44.6364]},"properties":{"name":"Island Park"}},
{"type":"Feature","geometry":{"type":"Point","coordinates":[-115.8257,46.3833]},"properties":{"name":"Kamiah"}},
{"type":"Feature","geometry":{"type":"Point","coordinates":[-115.5052,46.2236]},"properties":{"name":"Kooskia"}},
{"type":"Feature","geometry":{"type":"Point","coordinates":[-111.5953,42.5124]},"properties":{"name":"Lava Hot Sprs."}},
{"type":"Feature","geometry":{"type":"Point","coordinates":[-113.5316,43.9800]},"properties":{"name":"Mackay"}},
{"type":"Feature","geometry":{"type":"Point","coordinates":[-115.9671,44.9818]},"properties":{"name":"McCall"}},
{"type":"Feature","geometry":{"type":"Point","coordinates":[-111.8170,42.5713]},"properties":{"name":"McCammon"}},
{"type":"Feature","geometry":{"type":"Point","coordinates":[-111.1517,42.3564]},"properties":{"name":"Montpelier"}},
{"type":"Feature","geometry":{"type":"Point","coordinates":[-115.5304,43.1424]},"properties":{"name":"Mountain Home"}},
{"type":"Feature","geometry":{"type":"Point","coordinates":[-115.9241,48.9414]},"properties":{"name":"Moyie Springs"}},
{"type":"Feature","geometry":{"type":"Point","coordinates":[-116.2244,45.0314]},"properties":{"name":"New Meadows"}},
{"type":"Feature","geometry":{"type":"Point","coordinates":[-111.4622,42.3025]},"properties":{"name":"Ovid"}},
{"type":"Feature","geometry":{"type":"Point","coordinates":[-116.6639,44.1615]},"properties":{"name":"Payette"}},
{"type":"Feature","geometry":{"type":"Point","coordinates":[-114.2831,43.3528]},"properties":{"name":"Shoshone"}},
{"type":"Feature","geometry":{"type":"Point","coordinates":[-114.9301,44.2870]},"properties":{"name":"Stanley"}},
{"type":"Feature","geometry":{"type":"Point","coordinates":[-114.2945,43.8456]},"properties":{"name":"Sun Valley"}}
]}
