{"type":"FeatureCollection","features":[
{"type":"Feature","geometry":{"type":"Point","coordinates":[-113.3789,43.8646]},"properties":{"name":"Arco"}},
{"type":"Feature","geometry":{"type":"Point","coordinates":[-114.2490,43.6699]},"properties":{"name":"Bellevue"}},
{"type":"Feature","geometry":{"type":"Point","coordinates":[-116.3486,48.8201]},"properties":{"name":"Bonners Ferry"}},
{"type":"Feature","geometry":{"type":"Point","coordinates":[-115.9471,42.4157]},"properties":{"name":"Bruneau"}},
{"type":"Feature","geometry":{"type":"Point","coordinates":[-116.5052,44.6696]},"properties":{"name":"Cambridge"}},
{"type":"Feature","geometry":{"type":"Point","coordinates":[-113.8003,43.3840]},"properties":{"name":"Carey"}},
{"type":"Feature","geometry":{"type":"Point","coordinates":[-114.1700,44.6067]},"properties":{"name":"Challis"}},
{"type":"Feature","geometry":{"type":"Point","coordinates":[-113.5698,43.5560]},"properties":{"name":"Craters of the Moon"}},
{"type":"Feature","geometry":{"type":"Point","coordinates":[-116.6588,44.0473]},"properties":{"name":"Fruitland"}},
{"type":"Feature","geometry":{"type":"Point","coordinates":[-116.0678,44.1054]},"properties":{"name":"Horseshoe Bend"}},
{"type":"Feature","geometry":{"type":"Point","coordinates":[-111.4049,44.6483]},"properties":{"name":"Island Park"}},
{"type":"Feature","geometry":{"type":"Point","coordinates":[-115.8236,46.3994]},"properties":{"name":"Kamiah"}},
{"type":"Feature","geometry":{"type":"Point","coordinates":[-115.5030,46.2393]},"properties":{"name":"Kooskia"}},
{"type":"Feature","geometry":{"type":"Point","coordinates":[-111.5917,42.5209]},"properties":{"name":"Lava Hot Sprs."}},
{"type":"Feature","geometry":{"type":"Point","coordinates":[-113.5284,43.9915]},"properties":{"name":"Mackay"}},
{"type":"Feature","geometry":{"type":"Point","coordinates":[-115.9642,44.9957]},"properties":{"name":"McCall"}},
{"type":"Feature","geometry":{"type":"Point","coordinates":[-111.8133,42.5799]},"properties":{"name":"McCammon"}},
{"type":"Feature","geometry":{"type":"Point","coordinates":[-111.1480,42.3644]},"properties":{"name":"Montpelier"}},
{"type":"Feature","geometry":{"type":"Point","coordinates":[-115.5265,43.1531]},"properties":{"name":"Mountain Home"}},
{"type":"Feature","geometry":{"type":"Point","coordinates":[-115.9237,48.9616]},"properties":{"name":"Moyie Springs"}},
{"type":"Feature","geometry":{"type":"Point","coordinates":[-116.2215,45.0455]},"properties":{"name":"New Meadows"}},
{"type":"Feature","geometry":{"type":"Point","coordinates":[-111.4585,42.3106]},"properties":{"name":"Ovid"}},
{"type":"Feature","geometry":{"type":"Point","coordinates":[-116.6605,44.1744]},"properties":{"name":"Payette"}},
{"type":"Feature","geometry":{"type":"Point","coordinates":[-114.2794,43.3634]},"properties":{"name":"Shoshone"}},
{"type":"Feature","geometry":{"type":"Point","coordinates":[-114.9268,44.2994]},"properties":{"name":"Stanley"}},
{"type":"Feature","geometry":{"type":"Point","coordinates":[-114.2911,43.8571]},"properties":{"name":"Sun Valley"}}
]}
