{"type":"FeatureCollection","features":[
{"type":"Feature","geometry":{"type":"Point","coordinates":[-122.2331,48.4908]},"properties":{"name":"Burlington"}},
{"type":"Feature","geometry":{"type":"Point","coordinates":[-117.1965,46.4828]},"properties":{"name":"Clarkston"}},
{"type":"Feature","geometry":{"type":"Point","coordinates":[-119.2212,47.6527]},"properties":{"name":"Coulee City"}},
{"type":"Feature","geometry":{"type":"Point","coordinates":[-122.5042,48.3039]},"properties":{"name":"Coupeville"}},
{"type":"Feature","geometry":{"type":"Point","coordinates":[-117.8593,46.4144]},"properties":{"name":"Dayton"}},
{"type":"Feature","geometry":{"type":"Point","coordinates":[-122.4687,48.3944]},"properties":{"name":"Deception Pass"}},
{"type":"Feature","geometry":{"type":"Point","coordinates":[-123.0059,47.9508]},"properties":{"name":"Discovery Bay"}},
{"type":"Feature","geometry":{"type":"Point","coordinates":[-120.6246,47.1147]},"properties":{"name":"Ellensburg"}},
{"type":"Feature","geometry":{"type":"Point","coordinates":[-124.2439,47.8558]},"properties":{"name":"Forks"}},
{"type":"Feature","geometry":{"type":"Point","coordinates":[-120.5998,46.0131]},"properties":{"name":"Goldendale"}},
{"type":"Feature","geometry":{"type":"Point","coordinates":[-119.0864,48.0155]},"properties":{"name":"Grand Coulee Dam"}},
{"type":"Feature","geometry":{"type":"Point","coordinates":[-123.8705,47.0122]},"properties":{"name":"Hoquiam"}},
{"type":"Feature","geometry":{"type":"Point","coordinates":[-124.2347,47.5461]},"properties":{"name":"Kalaloch"}},
{"type":"Feature","geometry":{"type":"Point","coordinates":[-119.0534,47.0884]},"properties":{"name":"Moses Lake"}},
{"type":"Feature","geometry":{"type":"Point","coordinates":[-120.7079,46.7307]},"properties":{"name":"Naches"}},
{"type":"Feature","geometry":{"type":"Point","coordinates":[-121.4898,48.5297]},"properties":{"name":"Newhalem"}},
{"type":"Feature","geometry":{"type":"Point","coordinates":[-119.6283,48.3719]},"properties":{"name":"Okanogan"}},
{"type":"Feature","geometry":{"type":"Point","coordinates":[-120.2004,47.6815]},"properties":{"name":"Orondo"}},
{"type":"Feature","geometry":{"type":"Point","coordinates":[-122.8336,48.0743]},"properties":{"name":"Port Townsend"}},
{"type":"Feature","geometry":{"type":"Point","coordinates":[-122.8501,47.6764]},"properties":{"name":"Potlatch"}},
{"type":"Feature","geometry":{"type":"Point","coordinates":[-118.4050,47.1725]},"properties":{"name":"Ritzville"}},
{"type":"Feature","geometry":{"type":"Point","coordinates":[-121.1129,47.5051]},"properties":{"name":"Snoqualmie Pass"}},
{"type":"Feature","geometry":{"type":"Point","coordinates":[-121.2746,47.8651]},"properties":{"name":"Stevens Pass"}},
{"type":"Feature","geometry":{"type":"Point","coordinates":[-119.4231,48.7184]},"properties":{"name":"Tonasket"}},
{"type":"Feature","geometry":{"type":"Point","coordinates":[-120.4314,46.5046]},"properties":{"name":"Union Gap"}},
{"type":"Feature","geometry":{"type":"Point","coordinates":[-118.1567,46.3080]},"properties":{"name":"Waitsburg"}},
{"type":"Feature","geometry":{"type":"Point","coordinates":[-118.5351,46.0805]},"properties":{"name":"Wallula Jct"}},
{"type":"Feature","geometry":{"type":"Point","coordinates":[-121.4076,46.7128]},"properties":{"name":"White Pass"}}
]}
