{"type":"FeatureCollection","features":[
{"type":"Feature","geometry":{"type":"Point","coordinates":[-122.2331,48.5125]},"properties":{"name":"Burlington"}},
{"type":"Feature","geometry":{"type":"Point","coordinates":[-117.1945,46.4995]},"properties":{"name":"Clarkston"}},
{"type":"Feature","geometry":{"type":"Point","coordinates":[-119.2201,47.6720]},"properties":{"name":"Coulee City"}},
{"type":"Feature","geometry":{"type":"Point","coordinates":[-122.5041,48.3254]},"properties":{"name":"Coupeville"}},
{"type":"Feature","geometry":{"type":"Point","coordinates":[-117.8573,46.4312]},"properties":{"name":"Dayton"}},
{"type":"Feature","geometry":{"type":"Point","coordinates":[-122.4686,48.4160]},"properties":{"name":"Deception Pass"}},
{"type":"Feature","geometry":{"type":"Point","coordinates":[-123.0055,47.9719]},"properties":{"name":"Discovery Bay"}},
{"type":"Feature","geometry":{"type":"Point","coordinates":[-120.6232,47.1336]},"properties":{"name":"Ellensburg"}},
{"type":"Feature","geometry":{"type":"Point","coordinates":[-124.2437,47.8773]},"properties":{"name":"Forks"}},
{"type":"Feature","geometry":{"type":"Point","coordinates":[-120.5976,46.0304]},"properties":{"name":"Goldendale"}},
{"type":"Feature","geometry":{"type":"Point","coordinates":[-119.0856,48.0353]},"properties":{"name":"Grand Coulee Dam"}},
{"type":"Feature","geometry":{"type":"Point","coordinates":[-123.8695,47.0323]},"properties":{"name":"Hoquiam"}},
{"type":"Feature","geometry":{"type":"Point","coordinates":[-124.2342,47.5672]},"properties":{"name":"Kalaloch"}},
{"type":"Feature","geometry":{"type":"Point","coordinates":[-119.0519,47.1067]},"properties":{"name":"Moses Lake"}},
{"type":"Feature","geometry":{"type":"Point","coordinates":[-120.7062,46.7491]},"properties":{"name":"Naches"}},
{"type":"Feature","geometry":{"type":"Point","coordinates":[-121.4897,48.5512]},"properties":{"name":"Newhalem"}},
{"type":"Feature","geometry":{"type":"Point","coordinates":[-119.6278,48.3924]},"properties":{"name":"Okanogan"}},
{"type":"Feature","geometry":{"type":"Point","coordinates":[-120.1995,47.7012]},"properties":{"name":"Orondo"}},
{"type":"Feature","geometry":{"type":"Point","coordinates":[-122.8333,48.0956]},"properties":{"name":"Port Townsend"}},
{"type":"Feature","geometry":{"type":"Point","coordinates":[-122.8495,47.6971]},"properties":{"name":"Potlatch"}},
{"type":"Feature","geometry":{"type":"Point","coordinates":[-118.4035,47.1907]},"properties":{"name":"Ritzville"}},
{"type":"Feature","geometry":{"type":"Point","coordinates":[-121.1119,47.5249]},"properties":{"name":"Snoqualmie Pass"}},
{"type":"Feature","geometry":{"type":"Point","coordinates":[-121.2739,47.8855]},"properties":{"name":"Stevens Pass"}},
{"type":"Feature","geometry":{"type":"Point","coordinates":[-119.4229,48.7394]},"properties":{"name":"Tonasket"}},
{"type":"Feature","geometry":{"type":"Point","coordinates":[-120.4296,46.5225]},"properties":{"name":"Union Gap"}},
{"type":"Feature","geometry":{"type":"Point","coordinates":[-118.1546,46.3248]},"properties":{"name":"Waitsburg"}},
{"type":"Feature","geometry":{"type":"Point","coordinates":[-118.5328,46.0970]},"properties":{"name":"Wallula Jct"}},
{"type":"Feature","geometry":{"type":"Point","coordinates":[-121.4061,46.7315]},"properties":{"name":"White Pass"}}
]}
